[
  
  {
    "name": "基隆市",
    "imagePath": "city.jpg",
    "latitude": 25.1276,
    "longitude": 121.7392
  },
  {
    "name": "台北市",
    "imagePath": "city.jpg",
    "latitude": 25.0330,
    "longitude": 121.5654
  },
  {
    "name": "新北市",
    "imagePath": "city.jpg",
    "latitude": 25.0110,
    "longitude": 121.4628
  },
  {
    "name": "桃園市",
    "imagePath": "city.jpg",
    "latitude": 24.9937,
    "longitude": 121.2969
  },
  {
    "name": "新竹市",
    "imagePath": "city.jpg",
    "latitude": 24.8066,
    "longitude": 120.9686
  },
  {
    "name": "新竹縣",
    "imagePath": "city.jpg",
    "latitude": 24.8387,
    "longitude": 121.0173
  },
  {
    "name": "苗栗縣",
    "imagePath": "city.jpg",
    "latitude": 24.5589,
    "longitude": 120.8208
  },
  {
    "name": "台中市",
    "imagePath": "city.jpg",
    "latitude": 24.1477,
    "longitude": 120.6736
  },
  {
    "name": "彰化縣",
    "imagePath": "city.jpg",
    "latitude": 24.0685,
    "longitude": 120.5575
  },
  {
    "name": "南投縣",
    "imagePath": "city.jpg",
    "latitude": 23.9097,
    "longitude": 120.6853
  },
  {
    "name": "雲林縣",
    "imagePath": "city.jpg",
    "latitude": 23.7092,
    "longitude": 120.4313
  },
  {
    "name": "嘉義市",
    "imagePath": "city.jpg",
    "latitude": 23.4801,
    "longitude": 120.4491
  },
  {
    "name": "嘉義縣",
    "imagePath": "city.jpg",
    "latitude": 23.4588,
    "longitude": 120.5740
  },
  {
    "name": "台南市",
    "imagePath": "city.jpg",
    "latitude": 22.9999,
    "longitude": 120.2270
  },
  {
    "name": "高雄市",
    "imagePath": "city.jpg",
    "latitude": 22.6273,
    "longitude": 120.3014
  },
  {
    "name": "屏東縣",
    "imagePath": "city.jpg",
    "latitude": 22.5519,
    "longitude": 120.5480
  },
  {
    "name": "台東縣",
    "imagePath": "city.jpg",
    "latitude": 22.7583,
    "longitude": 121.1444
  },
  {
    "name": "花蓮縣",
    "imagePath": "city.jpg",
    "latitude": 23.9872,
    "longitude": 121.6016
  },
  {
    "name": "宜蘭縣",
    "imagePath": "city.jpg",
    "latitude": 24.7021,
    "longitude": 121.7378
  },
  {
    "name": "澎湖縣",
    "imagePath": "city.jpg",
    "latitude": 23.5711,
    "longitude": 119.5798
  },
  {
    "name": "金門縣",
    "imagePath": "city.jpg",
    "latitude": 24.4368,
    "longitude": 118.3171
  },
  {
    "name": "連江縣",
    "imagePath": "city.jpg",
    "latitude": 26.1602,
    "longitude": 119.9586
  }
]
